{
  "type": "FeatureCollection",
  "features": [
    {
      "type": "Feature",
      "properties": {
        "name": "Hanxlerstr. 6"
      },
      "geometry": {
        "coordinates": [
          5.999121395820794,
          50.994277114660804
        ],
        "type": "Point"
      }
    },
    {
      "type": "Feature",
      "properties": {
        "name": "Heinsberger Straße 11"
      },
      "geometry": {
        "coordinates": [
          5.997902732324803,
          50.9933631104432
        ],
        "type": "Point"
      }
    },
    {
      "type": "Feature",
      "properties": {
        "name": "Heinsberger Straße 2"
      },
      "geometry": {
        "coordinates": [
          5.997572460289803,
          50.99287557129625
        ],
        "type": "Point"
      }
    },
    {
      "type": "Feature",
      "properties": {
        "name": "Sittarder Straße 11"
      },
      "geometry": {
        "coordinates": [
          5.9961762696404435,
          50.992985768939434
        ],
        "type": "Point"
      }
    },
    {
      "type": "Feature",
      "properties": {
        "name": "Sittarder Straße 12"
      },
      "geometry": {
        "coordinates": [
          5.996090255787465,
          50.99308120879709
        ],
        "type": "Point"
      }
    },
    {
      "type": "Feature",
      "properties": {
        "name": "Sittarder Straße 16"
      },
      "geometry": {
        "coordinates": [
          5.9958390833093915,
          50.99311804528432
        ],
        "type": "Point"
      }
    },
    {
      "type": "Feature",
      "properties": {
        "name": "Wallstraße 15"
      },
      "geometry": {
        "coordinates": [
          5.995607828939654,
          50.993830636245804
        ],
        "type": "Point"
      }
    },
    {
      "type": "Feature",
      "properties": {
        "name": "Wallstraße 10"
      },
      "geometry": {
        "coordinates": [
          5.995650070412523,
          50.99378695765719
        ],
        "type": "Point"
      }
    },
    {
      "type": "Feature",
      "properties": {
        "name": "Sittarder Straße 22"
      },
      "geometry": {
        "coordinates": [
          5.9954566856910105,
          50.99316587199715
        ],
        "type": "Point"
      }
    },
    {
      "type": "Feature",
      "properties": {
        "name": "Bruchstraße 26"
      },
      "geometry": {
        "coordinates": [
          5.995134192313287,
          50.99136101260717
        ],
        "type": "Point"
      }
    }
  ]
}
